,제목,주소,경도,위도
0,IBK본점, 서울 중구 을지로 79,126.986204,37.5664756
1,YTN점, 서울 중구 세종대로1길 11,126.972534,37.5581839
2,광희동점, 서울 중구 마른내로 165-1,127.006487,37.5646114
3,다동점, 서울 중구 다동길 46,126.982038,37.5679076
4,동국대후문점, 서울 중구 창경궁로 2,126.998678,37.5625392
5,동대문점, 서울 중구 을지로43길 38,127.007744,37.5676927
6,동평화점, 서울 중구 청계천로 318,127.013925,37.5694492
7,만리동고개점, 서울 중구 만리재로 175,126.963391,37.5541719
8,명동역점, 서울 중구 퇴계로 103,126.983194,37.5608530
9,명동중앙점, 서울 중구 명동7길 21,126.983850,37.5646913
10,서소문점, 서울 중구 서소문로11길 8,126.973019,37.5633017
11,서울시청점, 서울 중구 세종대로20길 23,126.978824,37.5671231
12,신당점, 서울 중구 다산로35길 11,127.014795,37.5635386
13,신당중앙점, 서울 중구 퇴계로 455,127.022334,37.5656368
14,약수역점, 서울 중구 동호로 186-13,127.011613,37.5545470
15,오장동점, 서울 중구 마른내로 109-1,127.000115,37.5645935
16,을지로3가점, 서울 중구 수표로 45,126.989656,37.5654398
17,정동점, 서울 중구 정동길 2-1,126.969338,37.5679589
18,중림점, 서울 중구 청파로 464,126.968323,37.5606155
19,청구역점, 서울 중구 다산로 181-2,127.013210,37.5597636
20,충무로3가점, 서울 중구 퇴계로27길 31,126.991230,37.5625478
21,충무로점, 서울 중구 퇴계로 188,126.992532,37.5608090
22,충무아트홀점, 서울 중구 퇴계로 381-1,127.013980,37.5652596
23,충무필동점, 서울 중구 퇴계로 218-5,126.996256,37.5613678
24,충정로역점, 서울 중구 중림로 10,126.965291,37.5581008
25,태평로점, 서울 중구 세종대로11길 26,126.974468,37.5623650
26,퇴계로2길점, 서울 중구 퇴계로2길 1,126.977389,37.5575543
27,한국은행점, 서울 중구 남대문로 29-2,126.978939,37.5614289
28,황학롯데캐슬점, 서울 중구 청계천로 400,127.021407,37.5709618
29,회현SK리더스점, 서울 중구 퇴계로 72,126.980829,37.5591677
30,강남YMCA점, 서울 강남구 논현동,우편번호없음,x좌표없음
31,강남구청역아이티웨딩점, 서울 강남구 학동로 338,127.040124,37.5165371
32,강남논현학동점, 서울 강남구 논현로131길 28,127.028065,37.5140627
33,강남대치점, 서울 강남구 역삼로 415,127.052308,37.5014227
34,강남도산점, 서울 강남구 도산대로37길 20,127.031462,37.5222700
35,강남세곡점, 서울 강남구 헌릉로569길 9,127.100913,37.4667842
36,강남율현점, 서울 강남구 밤고개로21길 8,127.107773,37.4735628
37,강남자곡점, 서울 강남구 자곡로 180,127.102889,37.4736122
38,개포동역점, 서울 강남구 개포로82길 11,127.067428,37.4885219
39,건설회관점, 서울 강남구 언주로 711,127.033553,37.5172599
40,대청역점, 서울 강남구 개포로109길 34,127.077599,37.4942011
41,대치역점, 서울 강남구 남부순환로 2937,127.061564,37.4941203
42,도곡2동점, 서울 강남구 논현로 142,127.043024,37.4824062
43,도산사거리점, 서울 강남구 논현동 ,우편번호없음,x좌표없음
44,삼성대치점, 서울 강남구 삼성로64길 32,127.063050,37.5004085
45,삼성동점, 서울 강남구 테헤란로88길 10,127.059414,37.5068705
46,삼성중앙역점, 서울 강남구 삼성로 608,127.053232,37.5138561
47,삼성한전점, 서울 강남구 테헤란로107길 11,127.065027,37.5104265
48,선릉사거리점, 서울 강남구 선릉로 519,127.048013,37.5058664
49,선릉역점, 서울 강남구 테헤란로 332,127.048045,37.5037851
50,선정릉역점, 서울 강남구 봉은사로 326,127.042643,37.5096436
51,수서역점, 서울 강남구 광평로 280,127.103473,37.4874150
52,신사역점, 서울 강남구 압구정로2길 62,127.021415,37.5177761
53,신사점, 서울 강남구 도산대로 118,127.021709,37.5166498
54,압구정로데오역점, 서울 강남구 선릉로161길 20,127.038806,37.5275207
55,압구정점, 서울 강남구 신사동,우편번호없음,x좌표없음
56,역삼더블루점, 서울 강남구 논현로63길 16,127.039094,37.4929853
57,역삼상록점, 서울 강남구 테헤란로43길 18,127.044008,37.5044083
58,역삼역점, 서울 강남구 테헤란로25길 17,127.035186,37.5017983
59,역삼월드점, 서울 강남구 역삼로52길 14,127.047929,37.4985143
60,역삼점, 서울 강남구 논현로72길 13,127.040521,37.4958230
61,역삼중앙점, 서울 강남구 언주로81길 8,127.042853,37.5003542
62,역삼초교점, 서울 강남구 강남대로 314,127.031370,37.4913207
63,역삼충현점, 서울 강남구 논현로98길 7,127.036306,37.5037711
64,역삼플래티넘점, 서울 강남구 테헤란로4길 46,127.030388,37.4953844
65,을지병원사거리점, 서울 강남구 도산대로30길 7,127.029413,37.5193873
66,이디야커피랩, 서울 강남구 논현로 636,127.033120,37.5105295
67,일원동점, 서울 강남구 양재대로27길 20,127.081620,37.4903962
68,청담사거리점, 서울 강남구 도산대로 521,127.050355,37.5248495
69,청담역점, 서울 강남구 삼성로 721,127.049062,37.5200207
70,포이사거리점, 서울 강남구 개포로 218,127.046605,37.4784495
71,학동역점, 서울 강남구 학동로 219,127.033122,37.5150345
72,학동제마점, 서울 강남구 학동로34길 22,127.033630,37.5131243
73,한티역점, 서울 강남구 도곡로69길 8,127.056105,37.4979432
74,IBK본점, 서울 중구 을지로 79,126.986204,37.5664756
75,YTN점, 서울 중구 세종대로1길 11,126.972534,37.5581839
76,광희동점, 서울 중구 마른내로 165-1,127.006487,37.5646114
77,다동점, 서울 중구 다동길 46,126.998678,37.5625392
78,동국대후문점, 서울 중구 창경궁로 2,126.998678,37.5625392
79,동대문점, 서울 중구 을지로43길 38,127.007744,37.5676927
80,동평화점, 서울 중구 청계천로 318,127.013925,37.5694492
81,만리동고개점, 서울 중구 만리재로 175,126.963391,37.5541719
82,명동역점, 서울 중구 퇴계로 103,126.983194,37.5608530
83,명동중앙점, 서울 중구 명동7길 21,126.983850,37.5646913
84,서소문점, 서울 중구 서소문로11길 8,126.973019,37.5633017
85,서울시청점, 서울 중구 세종대로20길 23,127.014795,37.5635386
86,신당점, 서울 중구 다산로35길 11,127.014795,37.5635386
87,신당중앙점, 서울 중구 퇴계로 455,127.022334,37.5656368
88,약수역점, 서울 중구 동호로 186-13,127.011613,37.5545470
89,오장동점, 서울 중구 마른내로 109-1,127.000115,37.5645935
90,을지로3가점, 서울 중구 수표로 45,126.989656,37.5654398
91,정동점, 서울 중구 정동길 2-1,126.969338,37.5679589
92,중림점, 서울 중구 청파로 464,126.968323,37.5606155
93,청구역점, 서울 중구 다산로 181-2,127.013210,37.5597636
94,충무로3가점, 서울 중구 퇴계로27길 31,126.991230,37.5625478
95,충무로점, 서울 중구 퇴계로 188,126.992532,37.5608090
96,충무아트홀점, 서울 중구 퇴계로 381-1,127.013980,37.5652596
97,충무필동점, 서울 중구 퇴계로 218-5,126.996256,37.5613678
98,충정로역점, 서울 중구 중림로 10,126.965291,37.5581008
99,태평로점, 서울 중구 세종대로11길 26,126.974468,37.5623650
100,퇴계로2길점, 서울 중구 퇴계로2길 1,126.977389,37.5575543
101,한국은행점, 서울 중구 남대문로 29-2,126.978939,37.5614289
102,황학롯데캐슬점, 서울 중구 청계천로 400,127.021407,37.5709618
103,회현SK리더스점, 서울 중구 퇴계로 72,126.980829,37.5591677
104,강남센트럴시티점, 서울 서초구 신반포로 176,127.003599,37.5043439
105,교대역점, 서울 서초구 서초대로56길 22,127.017101,37.4934768
106,교육개발원사거리점, 서울 서초구 바우뫼로 180,127.039810,37.4782537
107,국립중앙도서관디지털관점, 서울 서초구 반포대로 201,127.003350,37.4972981
108,국립중앙도서관본관점, 서울 서초구 반포대로 201,127.003350,37.4972981
109,남부터미널점, 서울 서초구 서초동 ,우편번호없음,x좌표없음
110,내방역점, 서울 서초구 서초대로 108,126.994282,37.4875220
111,반포지하상가점, 서울 서초구 신반포로 지하,우편번호없음,x좌표없음
112,방배백석점, 서울 서초구 방배로 42,126.999789,37.4786924
113,방배역점, 서울 서초구 방배로 87,126.996871,37.4821612
114,방배중앙점, 서울 서초구 동광로 1,126.983008,37.4910527
115,서울고교점, 서울 서초구 서초동 ,우편번호없음,x좌표없음
116,서울고속버스터미널점, 서울 서초구 신반포로 194,127.007105,37.5055601
117,서울교대점, 서울 서초구 서초동 ,우편번호없음,x좌표없음
118,서초법조타운점, 서울 서초구 서초중앙로24길 7,127.014477,37.4947746
119,서초역점, 서울 서초구 서초동 ,우편번호없음,x좌표없음
120,서초우면중앙점, 서울 서초구 양재대로2길 100-11,127.016223,37.4564456
121,서초점, 서울 서초구 서초대로48길 16,127.011311,37.4920358
122,신논현역점,  서울 서초구 강남대로79길,우편번호없음,x좌표없음
123,양재언남점, 서울 서초구 동산로 60,127.045425,37.4716654
124,양재점, 서울 서초구 남부순환로347길 38,127.031470,37.4860227
125,양재중앙점, 서울 서초구 강남대로 221,127.034307,37.4834001
126,양재하나로마트점, 서울 서초구 청계산로 10,127.043827,37.4630613
127,예술의전당점, 서울 서초구 반포대로 32,127.012124,37.4834312
128,우면동점, 서울 서초구 바우뫼로 20,127.025269,37.4699863
129,잠원논현점, 서울 서초구 신반포로 333,127.020045,37.5109017
130,청계산입구역점, 서울 서초구 신원동,우편번호없음,x좌표없음
131,포이점, 서울 서초구 마방로10길 42,127.044535,37.4756391
132,함지박사거리점, 서울 서초구 방배로 234,126.989916,37.4941711
133,경복궁역점, 서울 종로구 자하문로 7,126.972187,37.5766992
134,광화문점, 서울 종로구 세종대로23길 15,126.975642,37.5714833
135,광화문트윈트리타워점, 서울 종로구 율곡로 6,126.980553,37.5754306
136,낙원동점, 서울 종로구 낙원동 ,우편번호없음,x좌표없음
137,대학로점, 서울 종로구 대학로10길 17,127.003160,37.5820727
138,독립문역점, 서울 종로구 통일로 266,126.956769,37.5758384
139,동대문역점, 서울 종로구 율곡로 286,127.008095,37.5718102
140,동묘역점, 서울 종로구 종로 354,127.016778,37.5730888
141,방통대점, 서울 종로구 대학로 81-1,127.001892,37.5784868
142,배화여대점, 서울 종로구 필운대로1길 35,126.967489,37.5777791
143,북촌마을점, 서울 종로구 북촌로5길 39,126.982692,37.5793232
144,삼일빌딩점, 서울 종로구 삼일대로15길 13,126.986713,37.5687642
145,상명대점, 서울 종로구 홍지동,우편번호없음,x좌표없음
146,성균관대점, 서울 종로구 성균관로 8,126.998315,37.5836404
147,숭인점, 서울 종로구 숭인동길 6,127.021578,37.5752685
148,신설점, 서울 종로구 난계로29길 30,127.021453,37.5742234
149,종각점, 서울 종로구 삼일대로19길 24,126.986192,37.5696471
150,종로3가점, 서울 종로구 종로 126,126.991512,37.5700801
151,종로4가점, 서울 종로구 김상옥로 1,126.997885,37.5734952
152,종로5가점, 서울 종로구 대학로 33,127.001813,37.5741980
153,종로교차로점, 서울 종로구 동호로 406-1,127.002232,37.5705851
154,종로구청점, 서울 종로구 수송동,우편번호없음,x좌표없음
155,종로르메이에르점, 서울 종로구 종로1가 르메이에르종로타운,126.979898,37.5708264
156,종로삼일대로점, 서울 종로구 삼일대로 390-1,126.983837,37.5704306
157,종로타워점, 서울 종로구 종로 51,126.983837,37.5704306
158,창덕궁점, 서울 종로구 돈화문로 41-1,126.991421,37.5722515
159,창신동점, 서울 종로구 종로 316-1,127.012963,37.5720351
160,창신중앙점,  서울 종로구 지봉로,우편번호없음,x좌표없음
161,탑골공원점, 서울 종로구 낙원동 ,우편번호없음,x좌표없음
162,혜화동로터리점, 서울 종로구 혜화로 3-1,127.000522,37.5860460
163,혜화역점, 서울 종로구 창경궁로 258-15,127.000624,37.5835864
164,KBS별관점, 서울 영등포구 국제금융로8길 27-9,126.928794,37.5197647
165,국회대로점, 서울 영등포구 국회대로72길 4,126.919948,37.5302916
166,국회의사당역점, 서울 영등포구 의사당대로 22,126.917859,37.5268574
167,남부고용센터점, 서울 영등포구 양산로 71,126.891084,37.5249974
168,당산버드나루점, 서울 영등포구 버드나루로 87,126.908686,37.5259135
169,당산역점, 서울 영등포구 당산로 222,126.902250,37.5332154
170,당산중앙점, 서울 영등포구 당산로 159,126.897470,37.5289495
171,대림1동점, 서울 영등포구 도림로 198,126.902751,37.4963830
172,대림3동점, 서울 영등포구 대림로 212,126.898167,37.4995686
173,대림역점, 서울 영등포구 도림로31길 2,126.895836,37.4924937
174,도림사거리점, 서울 영등포구 도림로 326,126.901776,37.5065634
175,도림점, 서울 영등포구 도신로15길 40,126.896560,37.5085952
176,라이프점, 서울 영등포구 63로 40,126.939552,37.5191942
177,문래역점, 서울 영등포구 문래로 89,126.891940,37.5196643
178,보라매역점, 서울 영등포구 여의대방로 141,126.919959,37.4996757
179,서여의도점, 서울 영등포구 국회대로72길 17,126.921205,37.5295266
180,선유도역점, 서울 영등포구 양평로 126,126.893893,37.5382266
181,신길성애병원점, 서울 영등포구 여의대방로53길 27,126.921518,37.5118403
182,신길썬프라자점, 서울 영등포구 신길로 42,126.908609,37.4964598
183,신길아이파크점, 서울 영등포구 도림로 280,126.904202,37.5029254
184,신길역점, 서울 영등포구 영등포로 353,126.917963,37.5151265
185,신길중앙점, 서울 영등포구 도신로 229,126.916484,37.5121791
186,신풍역점, 서울 영등포구 신풍로 52-1,126.911771,37.4999311
187,양평동2가점, 서울 영등포구 선유서로25길 19,126.883732,37.5243055
188,여의나루역점, 서울 영등포구 여의나루로 113,126.930734,37.5260098
189,여의도농협재단점, 서울 영등포구 국제금융로8길 2,126.930093,37.5219820
190,여의도역점, 서울 영등포구 의사당대로 108,126.923952,37.5204645
191,영등포knk점, 서울 영등포구 영신로 220,126.904012,37.5267387
192,영등포구청점, 서울 영등포구 당산로 110,126.896594,37.5245159
193,영등포그랜드점, 서울 영등포구 양산로9길 15,126.888525,37.5265627
194,영등포본동점, 서울 영등포구 영신로19길 15,126.905975,37.5138290
195,영등포시장점, 서울 영등포구 영등포로35길 19,우편번호없음,x좌표없음
196,영등포아크로타워점, 서울 영등포구 국회대로54길 10,126.906415,37.5236412
197,영등포에이스점, 서울 영등포구 경인로 775,126.899481,37.5147606
198,영등포점, 서울 영등포구 영중로 16-1,126.906150,37.5178656
199,영등포중앙점, 서울 영등포구 영중로 37,126.904689,37.5194592
200,영등포코레일점, 서울 영등포구 경인로 846,126.906334,37.5156493
201,영등포홈플러스점, 서울 영등포구 당산로 42,126.895902,37.5182083
202,한강성심병원점, 서울 영등포구 버드나루로 51,126.910578,37.5230588
203,한국수출입은행점, 서울 영등포구 은행로 38,126.923378,37.5285911
204,힐스테이트클래시안점, 서울 영등포구 신길로28길 9,126.911179,37.5033995
205,공덕롯데캐슬점, 서울 마포구 마포대로 109,126.950575,37.5449139
206,공덕점, 서울 마포구 마포대로8길 15,126.954071,37.5463930
207,광흥창역점, 서울 마포구 창전로 45,126.931801,37.5465802
208,대흥역점, 서울 마포구 백범로 100,126.942369,37.5474779
209,동교중앙점, 서울 마포구 동교로27길 8,126.922973,37.5587200
210,마포공덕역점, 서울 마포구 새창로 6,126.950441,37.5420757
211,마포구청점, 서울 마포구 월드컵로 196,126.902729,37.5647775
212,마포데시앙점, 서울 마포구 독막로 320,126.947838,37.5429485
213,마포성산시영점, 서울 마포구 월드컵북로 210,126.905791,37.5691769
214,마포점, 서울 마포구 도화길 10,126.947331,37.5397678
215,망리단길점, 서울 마포구 포은로 81-1,126.905244,37.5543011
216,망원역점, 서울 마포구 월드컵로 82-1,126.910198,37.5563593
217,망원중앙점, 서울 마포구 월드컵로 147,126.905417,37.5607523
218,상수역점, 서울 마포구 와우산로 41-1,126.922758,37.5482323
219,상암DMC점, 서울 마포구 월드컵북로 396,126.890257,37.5794165
220,상암KBS점, 서울 마포구 월드컵북로 375,126.890599,37.5775248
221,상암우리기술점, 서울 마포구 월드컵북로56길 9,126.887424,37.5813690
222,상암한샘점, 서울 마포구 성암로13길 58,126.897711,37.5756842
223,상암홈플러스점, 서울 마포구 월드컵로 240,126.897348,37.5682507
224,서강대점, 서울 마포구 백범로 34,126.937296,37.5516829
225,서교동점, 서울 마포구 와우산로29길 70,126.926575,37.5563438
226,성산점, 서울 마포구 월드컵북로 137,126.911444,37.5648205
227,성산중앙점, 서울 마포구 성미산로 78,126.916645,37.5602924
228,신촌그랑자이점, 서울 마포구 대흥로 183,126.944434,37.5553446
229,신촌로터리점, 서울 마포구 서강로 135,126.935404,37.5544930
230,신촌숲아이파크점, 서울 마포구 광성로 17,126.934366,37.5510416
231,애오개역점, 서울 마포구 마포대로 208,126.956817,37.5524848
232,오벨리스크점, 서울 마포구 마포대로 33,126.945453,37.5400192
233,한강공원로점,  서울 마포구 망원로,우편번호없음,x좌표없음
234,합정LIG점, 서울 마포구 양화로1길 21,126.910331,37.5495208
235,합정동점, 서울 마포구 양화로6길 90,126.919057,37.5482208
236,합정역사거리점, 서울 마포구 독막로2길 5,126.914825,37.5482538
237,합정역점, 서울 마포구 양화로11길 54,126.913813,37.5522805
238,합정홈플러스점, 서울 마포구 양화로 45,126.913758,37.5509200
239,홍대중앙점, 서울 마포구 양화로 124,126.920918,37.5542137
240,홍대청기와점, 서울 마포구 월드컵북로 7,126.920645,37.5556010
241,홍대학원가점, 서울 마포구 와우산로 148,126.929655,37.5541112
242,가든파이브점, 서울 송파구 충민로 10,127.119526,37.4782819
243,가든파이브테크노관점, 서울 송파구 충민로 66,127.124342,37.4777905
244,가락몰점, 서울 송파구 양재대로 932,127.107552,37.4933581
245,가락중앙점, 서울 송파구 송이로 87,127.120779,37.4983099
246,개롱역점, 서울 송파구 오금로 407,127.136543,37.4980947
247,거여점, 서울 송파구 오금로 497,127.144168,37.4934907
248,마천사거리점, 서울 송파구 마천로 264,127.145997,37.4981286
249,문정KDU타워점, 서울 송파구 정의로 70,127.115468,37.4860255
250,문정문현점, 서울 송파구 새말로8길 30,127.126629,37.4801307
251,문정중앙점, 서울 송파구 문정로 31-1,127.126312,37.4864561
252,문정테라타워점, 서울 송파구 송파대로 167,127.121029,37.4846505
253,방이미성점, 서울 송파구 오금로 251,127.121968,37.5061564
254,방이시장점, 서울 송파구 백제고분로48길 3,127.113732,37.5118499
255,방이역점, 서울 송파구 위례성대로18길 32,127.124699,37.5095594
256,방이초교점, 서울 송파구 가락로 280,127.120022,37.5127447
257,삼전역점, 서울 송파구 백제고분로 263,127.095781,37.5027745
258,서울삼성내과점, 서울 송파구 백제고분로 126,127.080721,37.5061463
259,석촌백제점, 서울 송파구 백제고분로39길 15,127.104414,37.5056595
260,석촌사거리점, 서울 송파구 송파대로 409,127.108245,37.5034847
261,석촌역점, 서울 송파구 송파대로 456,127.105819,37.5071900
262,송파동점, 서울 송파구 백제고분로41길 5,127.108363,37.5067192
263,송파문정점, 서울 송파구 송이로 159,127.125328,37.4929443
264,송파올림픽훼미리타운점, 서울 송파구 중대로 24,127.114352,37.4884954
265,송파위례점, 서울 송파구 위례광장로 188,127.142425,37.4810589
266,송파잠실점, 서울 송파구 삼전로 95,127.089906,37.5069777
267,송파파인타운점, 서울 송파구 충민로2길 28,127.127382,37.4772287
268,송파풍납점, 서울 송파구 강동대로9길 17-1,127.116528,37.5280832
269,송파하비오점, 서울 송파구 송파대로 111,127.123645,37.4805933
270,송파한양점, 서울 송파구 가락로 165,127.113539,37.5037771
271,오금점, 서울 송파구 오금로 306,127.126102,37.5028635
272,오금중앙점,  서울 송파구 위례성대로22길,우편번호없음,x좌표없음
273,올림픽공원점, 서울 송파구 올림픽로 354,127.109530,37.5160975
274,올림픽프라자점, 서울 송파구 양재대로 1222,127.132198,37.5158133
275,위례아이파크점, 서울 송파구 위례광장로 136,127.142214,37.4771038
276,위례포레샤인점, 서울 송파구 위례순환로 477,127.136547,37.4750111
277,잠실나루역점, 서울 송파구 올림픽로35길 104,127.099366,37.5195572
278,잠실본동점, 서울 송파구 백제고분로 172,127.085820,37.5047012
279,잠실역점, 서울 송파구 송파대로 567,127.078996,37.5115534
280,종합운동장역점, 서울 송파구 올림픽로 76,127.078996,37.5115534
281,가양역점, 서울 강서구 양천로 500,126.855561,37.5604850
282,강서nc점, 서울 강서구 강서로54길 11,126.839254,37.5593195
283,강서가양동점,  서울 강서구 강서로,우편번호없음,x좌표없음
284,강서교차로점, 서울 강서구 공항대로 437,126.855889,37.5549984
285,강서구청점, 서울 강서구 화곡로 292,126.848882,37.5502503
286,강서한강자이점, 서울 강서구 양천로 401,126.848636,37.5651795
287,개화산역점, 서울 강서구 양천로 28,126.806931,37.5723351
288,곰달래사거리점, 서울 강서구 곰달래로 52,126.838594,37.5298832
289,공항시장역점, 서울 강서구 방화동로 37,126.810789,37.5641784
290,까치산로점, 서울 강서구 까치산로 182,126.853866,37.5532930
291,까치산역점, 서울 강서구 강서로17길 6,126.845205,37.5333880
292,내발산점, 서울 강서구 강서로 304,126.836609,37.5527206
293,등촌3동점, 서울 강서구 공항대로41길 34,126.845706,37.5592831
294,등촌동점, 서울 강서구 공항대로61길 20,126.865865,37.5517757
295,등촌역점, 서울 강서구 등촌로 217,126.863290,37.5491418
296,등촌중앙점, 서울 강서구 등촌로 67,126.863144,37.5360682
297,렘넌트문화센터점, 서울 강서구 화곡로63길 65,126.849206,37.5579542
298,마곡나루역점, 서울 강서구 마곡중앙5로 6,126.827341,37.5672763
299,마곡대방디엠씨티점, 서울 강서구 양천로 344,126.840242,37.5683037
300,마곡수명산점, 서울 강서구 수명로 68-27,126.826662,37.5526612
301,마곡엠밸리점, 서울 강서구 마곡서로 101,126.823571,37.5626396
302,마곡역점, 서울 강서구 공항대로 195,126.829146,37.5598728
303,마곡중앙점, 서울 강서구 마곡중앙6로 66,126.834341,37.5598983
304,마곡퀸즈파크9점, 서울 강서구 공항대로 247,126.835214,37.5592959
305,마곡파인스퀘어점, 서울 강서구 마곡중앙4로 22,126.829275,37.5580800
306,마곡헤리움점, 서울 강서구 마곡중앙5로1길 25,126.826114,37.5692206
307,발산역점, 서울 강서구 공항대로 280,126.838408,37.5580119
308,방화동로점, 서울 강서구 방화동로 95,126.812633,37.5690106
309,방화사거리점, 서울 강서구 양천로 72,126.811706,37.5731447
310,방화역점, 서울 강서구 금낭화로 146,126.813278,37.5781747
311,서울공진초교점, 서울 강서구 마곡중앙1로 26,126.823830,37.5586126
312,송정역점, 서울 강서구 공항대로 24,126.809937,37.5611226
313,신방화역점, 서울 강서구 마곡중앙5로 81,126.818558,37.5671279
314,신방화중앙점, 서울 강서구 방화대로34길 92,126.821480,37.5708354
315,양천향교역점, 서울 강서구 강서로 462,126.841401,37.5666024
316,염창동점, 서울 강서구 양천로 689,126.872929,37.5505042
317,염창블루나인점, 서울 강서구 양천로 583,126.864305,37.5571618
318,우장산동점, 서울 강서구 우현로 15,126.843592,37.5471620
319,우장산역점, 서울 강서구 강서로45길 5,126.835817,37.5478091
320,화곡남부시장점, 서울 강서구 등촌로5길 80,126.858941,37.5330449
321,화곡로점, 서울 강서구 화곡로 133,126.836454,37.5408453
322,화곡본동시장점, 서울 강서구 까치산로4길 11,126.844282,37.5422075
323,화곡사거리점, 서울 강서구 곰달래로 135,126.847903,37.5307696
324,화곡중앙시장점, 서울 강서구 가로공원로76길 61,126.838256,37.5343967
325,화곡중앙점,  서울 강서구 까치산로,우편번호없음,x좌표없음
326,IBK고객센터점, 서울 용산구 한남대로 72,127.006961,37.5351129
327,동부이촌동점, 서울 용산구 이촌로77길 19,126.975014,37.5203427
328,동자동점, 서울 용산구 후암로 93,126.975105,37.5533282
329,삼각지점, 서울 용산구 한강대로 138,126.970440,37.5314329
330,숙대입구역점, 서울 용산구 한강대로 289,126.971951,37.5440472
331,순천향병원점, 서울 용산구 대사관로 72,127.005919,37.5330316
332,용문점, 서울 용산구 원효로41길 73,126.961115,37.5358269
333,용산원효점, 서울 용산구 원효로 70,126.951659,37.5324536
334,용산중앙점, 서울 용산구 한강대로 52-1,126.964662,37.5253946
335,용산청파점, 서울 용산구 청파로71길 10,126.969391,37.5494435
336,용산효창점, 서울 용산구 효창원로66길 2,126.962165,37.5405575
337,용산후암점, 서울 용산구 후암로 40-2,126.977686,37.5495175
338,원효로점, 서울 용산구 원효로 257,126.969191,37.5406317
339,이태원역점, 서울 용산구 이태원로 176,126.993406,37.5342298
340,가재울점, 서울 서대문구 수색로 100,126.910393,37.5728025
341,가재울중앙점, 서울 서대문구 가재울미래로 2,126.917840,37.5743487
342,독립문통일로점, 서울 서대문구 영천동 ,우편번호없음,x좌표없음
343,동교동점, 서울 서대문구 신촌로 5,126.927681,37.5586600
344,명지대점, 서울 서대문구 거북골로 35,126.923903,37.5793353
345,명지전문대점, 서울 서대문구 가좌로 140,126.924169,37.5845432
346,무악재역점, 서울 서대문구 홍제동 ,우편번호없음,x좌표없음
347,북가좌동점, 서울 서대문구 증가로 257,126.911513,37.5834350
348,서대문구청점, 서울 서대문구 연희로 237,126.935677,37.5782162
349,서대문점, 서울 서대문구 냉천동,우편번호없음,x좌표없음
350,신촌기차역점, 서울 서대문구 신촌역로 35,126.941455,37.5589381
351,신촌역점, 서울 서대문구 신촌로 87-20,126.936421,37.5564397
352,아현역점, 서울 서대문구 신촌로35길 10,126.955818,37.5582327
353,연남동점, 서울 서대문구 연희로 42,126.927870,37.5623452
354,연대서문점, 서울 서대문구 연희로10길 86,126.933687,37.5636821
355,연세대점, 서울 서대문구 연세로12길 10,126.937505,37.5588459
356,연희삼거리점, 서울 서대문구 연희로 117,126.931826,37.5682851
357,이화여대점, 서울 서대문구 이화여대길 26,126.946073,37.5579492
358,충정로3가점, 서울 서대문구 경기대로 26-26,126.962211,37.5612714
359,홍은사거리점, 서울 서대문구 통일로 510,126.941575,37.5933559
360,홍제역점, 서울 서대문구 홍제동,우편번호없음,x좌표없음
361,건대로데오점, 서울 광진구 아차산로30길 8,127.067587,37.5404013
362,건대스타시티2호점, 서울 광진구 능동로 92,127.071115,37.5387775
363,건대스타시티점, 서울 광진구 아차산로 272,127.072529,37.5378396
364,건대역점, 서울 광진구 아차산로 229,127.069262,37.5407337
365,건대후문점, 서울 광진구 광나루로 416,127.075502,37.5465143
366,광나루점, 서울 광진구 아차산로 624,127.107540,37.5481928
367,광진구청점, 서울 광진구 자양로 136,127.083404,37.5397697
368,구의동점, 서울 광진구 아차산로 481,127.094970,37.5409234
369,구의사거리점, 서울 광진구 광나루로 508,127.085843,37.5447865
370,구의역점, 서울 광진구 구의로 4,127.089275,37.5381977
371,구의자양로점, 서울 광진구 자양로 251,127.089197,37.5490367
372,군자역점, 서울 광진구 능동로 290,127.078951,37.5555851
373,동서울터미널점, 서울 광진구 구의동 ,우편번호없음,x좌표없음
374,뚝섬유원지역점, 서울 광진구 능동로 21,127.067264,37.5334908
375,세종대정문점, 서울 광진구 능동로 261,127.077116,37.5535050
376,세종대후문점, 서울 광진구 군자로 109,127.071966,37.5528595
377,아차산역점, 서울 광진구 천호대로 663,127.090117,37.5517480
378,어린이대공원역점, 서울 광진구 광나루로 380,127.071825,37.5475527
379,자양동점, 서울 광진구 자양로 46,127.085953,37.5322266
380,자양우성점, 서울 광진구 자양번영로 34,127.075805,37.5326839
381,중곡대원점, 서울 광진구 용마산로 111,127.086656,37.5635806
382,중곡신성점, 서울 광진구 용마산로 37,127.087713,37.5570026
383,중곡역점, 서울 광진구 능동로 407,127.083772,37.5654207
384,중곡중앙점, 서울 광진구 능동로 330,127.080788,37.5589626
385,강동고덕교차로점, 서울 강동구 고덕로 421,127.172391,37.5574059
386,강동구청점, 서울 강동구 성내로6길 20,127.122197,37.5290686
387,강동성내점, 서울 강동구 풍성로 162,127.129836,37.5304661
388,강동신명초교점, 서울 강동구 명일로 260,127.147495,37.5414827
389,강동역점, 서울 강동구 천호대로 1065,127.130402,37.5369977
390,강일점, 서울 강동구 아리수로93길 19,127.174096,37.5653681
391,고덕그라시움후문점, 서울 강동구 동남로82길 121,127.163694,37.5604004
392,고덕래미안힐스점, 서울 강동구 아리수로50길 50,127.148523,37.5577804
393,고덕점, 서울 강동구 동남로75길 19,127.155136,37.5541230
394,굽은다리역점, 서울 강동구 양재대로 1543,127.141842,37.5435889
395,길동사거리점, 서울 강동구 천호대로 1132,127.136936,37.5340261
396,길동역점, 서울 강동구 양재대로 1471,127.139205,37.5373481
397,길동중앙점, 서울 강동구 명일로 200,127.145913,37.5365202
398,둔촌점, 서울 강동구 양재대로 1377,127.136260,37.5293146
399,명일역점, 서울 강동구 구천면로 424,127.145543,37.5503058
400,명일중앙점, 서울 강동구 상암로 210,127.145762,37.5462872
401,보훈병원점, 서울 강동구 명일로 110,127.143058,37.5288472
402,상일리엔파크점, 서울 강동구 상일로 74,127.175277,37.5525183
403,암사3동점, 서울 강동구 고덕로 140,127.140515,37.5544384
404,암사역점, 서울 강동구 올림픽로 782,127.128106,37.5509385
405,암사중앙점, 서울 강동구 암사길 50,127.134840,37.5515708
406,올림픽북문점, 서울 강동구 성안로 7,127.128876,37.5245296
407,천호로데오점, 서울 강동구 천호대로 1027,127.126195,37.5382456
408,천호역점, 서울 강동구 천호대로 1006,127.123773,37.5379688
409,천호중앙점, 서울 강동구 올림픽로 660,127.124501,37.5401484
410,천호초교사거리점, 서울 강동구 구천면로 304,127.134899,37.5466693
411,천호현대점, 서울 강동구 올림픽로 665,127.123699,37.5410142
412,CBS본사점, 서울 양천구 목동서로 159-1,126.874868,37.5282878
413,강서초교점, 서울 양천구 오목로 48,126.842921,37.5219873
414,목3동점, 서울 양천구 목동중앙북로 38,126.867220,37.5468759
415,목4동점, 서울 양천구 목동중앙본로7길 46,126.866114,37.5394774
416,목동남부점, 서울 양천구 목동남로 46,126.864800,37.5087790
417,목동등촌로점, 서울 양천구 등촌로 180,126.862662,37.5456723
418,목동로데오점, 서울 양천구 목동로 219,126.863793,37.5279510
419,목동센트럴아이파크위브점, 서울 양천구 남부순환로 603,126.840651,37.5151907
420,목동신목점, 서울 양천구 목동중앙로 85,126.871436,37.5370057
421,목동신트리점, 서울 양천구 신정로 312,126.855517,37.5132188
422,목동아델리체점, 서울 양천구 중앙로43길 14,126.851318,37.5204035
423,목동역점, 서울 양천구 오목로 227,126.862710,37.5260577
424,목동중앙점, 서울 양천구 목동서로 287,126.869065,37.5215059
425,목동파라곤점, 서울 양천구 목동서로 155,126.875148,37.5294864
426,목동파리공원점, 서울 양천구 목동동로 379,126.878736,37.5355899
427,서남병원점, 서울 양천구 신정동,우편번호없음,x좌표없음
428,신월5동점, 서울 양천구 화곡로 50,126.827542,37.5391567
429,신월7동점, 서울 양천구 지양로 79,126.832943,37.5224060
430,신월사거리점, 서울 양천구 남부순환로 353,126.828930,37.5356628
431,신월신곡시장점, 서울 양천구 신월로 172,126.842669,37.5182839
432,신정교점, 서울 양천구 신목로 36,126.873809,37.5188532
433,신정네거리역점, 서울 양천구 중앙로 282,126.852628,37.5215675
434,신정서부점, 서울 양천구 신정로11길 50-15,126.838327,37.5122052
435,신정역점, 서울 양천구 오목로 155,126.854635,37.5249667
436,양천구청점, 서울 양천구 목동동로 63,126.862300,37.5152903
437,오목교대학학원점, 서울 양천구 오목로 319,126.873052,37.5250603
438,오목교역점, 서울 양천구 신목로 102,126.875814,37.5235676
439,고대개운점, 서울 성북구 개운사길 30,127.029416,37.5876735
440,고대점, 서울 성북구 고려대로24길 35,127.029540,37.5846642
441,국민대점, 서울 성북구 정릉로9라길 8,127.000375,37.6111385
442,길음뉴타운점, 서울 성북구 길음로 74,127.020693,37.6096683
443,돈암동점, 서울 성북구 동소문로 119,127.017880,37.5938024
444,돈암아리랑점, 서울 성북구 아리랑로 75,127.013601,37.5988124
445,돌곶이역점, 서울 성북구 돌곶이로22길 3,127.058078,37.6101879
446,동덕여대점, 서울 성북구 화랑로 99,127.042672,37.6034549
447,동소문동점, 서울 성북구 동소문로13길 5,127.012853,37.5920280
448,보문역점, 서울 성북구 보문로 111,127.019328,37.5849275
449,석계중앙점, 서울 성북구 화랑로40길 61,127.064922,37.6137793
450,석관동점, 서울 성북구 돌곶이로8길 22,127.063375,37.6061037
451,성신여대역점, 서울 성북구 동소문로17길 40,127.015820,37.5938747
452,성신여대점, 서울 성북구 보문로34길 100,127.020767,37.5911891
453,안암래미안점, 서울 성북구 보문로30가길 42,127.022001,37.5889815
454,월곡1동점, 서울 성북구 오패산로 99,127.035110,37.6107463
455,월곡동아점, 서울 성북구 장월로1길 47,127.045765,37.6061837
456,월곡중앙점, 서울 성북구 종암로 167,127.031076,37.6050441
457,장위2동점, 서울 성북구 화랑로25길 14,127.052438,37.6092804
458,장위뉴타운점, 서울 성북구 장월로 144-1,127.050948,37.6175881
459,장위동점, 서울 성북구 월계로40길 7,127.048245,37.6230222
460,장위북서울꿈의숲점, 서울 성북구 돌곶이로41가길 2,127.045591,37.6186264
461,장위중앙점, 서울 성북구 장위로 35,127.040753,37.6144475
462,정릉뉴타운점, 서울 성북구 정릉로 307,127.018245,37.6032987
463,정릉아리랑점, 서울 성북구 북악산로 851,127.019354,37.5997667
464,정릉점, 서울 성북구 보국문로 77,127.008586,37.6111293
465,정릉중앙점, 서울 성북구 정릉로 251,127.011949,37.6047050
466,종암동점, 서울 성북구 종암로 105,127.033894,37.5995834
467,하월곡동점, 서울 성북구 오패산로 16,127.037576,37.6036187
468,한성대역점, 서울 성북구 동소문로 19,127.008074,37.5895147
469,한성대점, 서울 성북구 삼선교로 10,127.006885,37.5877218
470,공릉역점, 서울 노원구 동일로192길 5,127.073281,37.6261990
471,공릉중앙점, 서울 노원구 공릉로 146,127.079531,37.6230146
472,광운대점, 서울 노원구 광운로 29,127.058403,37.6203147
473,노원KT점, 서울 노원구 노해로 494,127.062974,37.6544956
474,노원사거리점, 서울 노원구 동일로 1393,127.060491,37.6529292
475,노원역2호점, 서울 노원구 상계로 64,127.062306,37.6556672
476,노원중앙점, 서울 노원구 노원로 452,127.067169,37.6568359
477,당고개역점, 서울 노원구 상계로 313,127.080352,37.6708290
478,마들역점, 서울 노원구 동일로 1541,127.056999,37.6658419
479,상계동점, 서울 노원구 한글비석로52길 8,127.066439,37.6648640
480,상계역사거리점, 서울 노원구 한글비석로 409,127.070822,37.6611134
481,상계역점, 서울 노원구 덕릉로 698,127.075637,37.6598221
482,상계중앙점, 서울 노원구 동일로 1650,127.055668,37.6754379
483,서울과학기술대점, 서울 노원구 공릉로 208,127.077769,37.6282775
484,서울여대점, 서울 노원구 노원로 3,127.086553,37.6219015
485,석계역점, 서울 노원구 석계로3길 3,127.064335,37.6155365
486,세이브존노원점, 서울 노원구 한글비석로 57,127.068670,37.6377794
487,수락산역점, 서울 노원구 동일로 1689,127.054866,37.6791052
488,원자력병원점, 서울 노원구 공릉로46길 6,127.079467,37.6268618
489,월계이마트점, 서울 노원구 마들로3길 15,127.061841,37.6273227
490,월계인덕점, 서울 노원구 광운로22길 39,127.058830,37.6298019
491,월계초교점, 서울 노원구 월계동 ,우편번호없음,x좌표없음
492,은행사거리점, 서울 노원구 중계로 201,127.077747,37.6504326
493,중계롯데우성점, 서울 노원구 노원로22길 70,127.073415,37.6468134
494,중계본동점, 서울 노원구 중계로14바길 2,127.082573,37.6498617
495,중계브라운스톤점, 서울 노원구 동일로203가길 29,127.064231,37.6399171
496,중계점, 서울 노원구 동일로204가길 34,127.068208,37.6407348
497,중계중앙점, 서울 노원구 덕릉로73길 18,127.072388,37.6520937
498,태릉입구역점, 서울 노원구 공릉로 105,127.077828,37.6196010
499,하계온천점, 서울 노원구 노원로 257,127.072717,37.6402457
500,하계을지점, 서울 노원구 공릉로 326,127.071161,37.6358768
501,개봉북부점, 서울 구로구 경인로40길 12,126.859034,37.4962032
502,개봉역점, 서울 구로구 남부순환로97길 11,126.858370,37.4942022
503,개봉중앙점, 서울 구로구 개봉로3길 26,126.854868,37.4864583
504,개봉현대점, 서울 구로구 개봉로 69,126.855559,37.4918832
505,고대구로병원점, 서울 구로구 구로동로 157,126.883194,37.4925538
506,고척사거리점, 서울 구로구 고척로 228-6,126.858269,37.5058160
507,고척스카이돔점, 서울 구로구 경인로 397,126.863995,37.4975966
508,구로NC점, 서울 구로구 구로동로 240,126.882662,37.5000045
509,구로거리공원점, 서울 구로구 구로중앙로28길 73,126.889378,37.5007409
510,구로고척점, 서울 구로구 고척로 149,126.850176,37.5031299
511,구로궁동점, 서울 구로구 오리로 1304,126.829391,37.4977586
512,구로미성점, 서울 구로구 구로중앙로 228,126.876658,37.5061882
513,구로에이스점, 서울 구로구 디지털로33길 11,126.895495,37.4856998
514,구로역광장점, 서울 구로구 경인로 572,126.881073,37.5033276
515,구로이마트점, 서울 구로구 디지털로32길 43,126.897905,37.4843324
516,구로중앙점, 서울 구로구 도림로 79,126.892006,37.4900665
517,구로코레일점, 서울 구로구 구로중앙로 174,126.882284,37.5026981
518,구로항동지구점, 서울 구로구 항동로3길 6,126.824331,37.4807672
519,구일역점, 서울 구로구 구일로 110,126.871984,37.4950378
520,남구로역점, 서울 구로구 디지털로27길 127,126.887096,37.4846558
521,동양미래대학점, 서울 구로구 경인로47길 14,126.867021,37.5002581
522,메르디앙고척점, 서울 구로구 중앙로8길 11,126.863160,37.5028665
523,성공회대점, 서울 구로구 연동로 312,126.824011,37.4869746
524,신도림메르디앙점, 서울 구로구 신도림로 65,126.882070,37.5096086
525,신도림테크노마트점, 서울 구로구 새말로 97,126.890296,37.5069587
526,오류남부점, 서울 구로구 오류로8길 65,126.843729,37.4926789
527,오류북부역점, 서울 구로구 경인로20길 6,126.843226,37.4953632
528,천왕이펜하우스점, 서울 구로구 천왕로 36,126.839288,37.4810049
529,논골사거리점, 서울 성동구 난계로 35,127.024549,37.5554822
530,답십리로데오점, 서울 성동구 용답19길 17-1,127.052565,37.5637535
531,뚝섬역점, 서울 성동구 상원길 38-1,127.048695,37.5473751
532,마장동점, 서울 성동구 고산자로 339-2,127.037345,37.5700030
533,마장역점, 서울 성동구 마장로 293-1,127.042131,37.5659470
534,상왕십리역점, 서울 성동구 무학봉15길 27,127.030177,37.5636620
535,서울숲역점, 서울 성동구 왕십리로 96-1,127.044881,37.5462953
536,성동구청점, 서울 성동구 고산자로 269,127.035870,37.5636965
537,성수2가점, 서울 성동구 성덕정길 106,127.055070,37.5370830
538,성수아카데미점, 서울 성동구 성수이로 118,127.057803,37.5451816
539,성수우리W타워점, 서울 성동구 아차산로15길 19,127.062170,37.5447560
540,성수중앙점, 서울 성동구 성수일로6길 47,127.055301,37.5442638
541,신금호역점, 서울 성동구 금호산길 64,127.019603,37.5538793
542,옥수동점, 서울 성동구 매봉길 12,127.015697,37.5452573
543,옥수역점, 서울 성동구 한림말5길 9,127.016715,37.5420046
544,왕십리비트플렉스점, 서울 성동구 왕십리광장로 17,127.038416,37.5610558
545,왕십리센트라스점, 서울 성동구 무학로 22,127.030291,37.5660676
546,왕십리역점, 서울 성동구 왕십리로 309,127.034590,37.5611831
547,응봉동점, 서울 성동구 독서당로 381,127.030930,37.5510299
548,장한평역점, 서울 성동구 천호대로 426,127.066179,37.5608546
549,텐즈힐점, 서울 성동구 무학로 33,127.026580,37.5693120
550,한양대점, 서울 성동구 사근동길 4,127.041527,37.5599285
551,행당동점, 서울 성동구 고산자로 201,127.033695,37.5580389
552,가산SKV1점, 서울 금천구 가산디지털1로 171,126.880680,37.4807121
553,가산그레이트점, 서울 금천구 디지털로9길 32,126.887511,37.4794755
554,가산대륭19차점, 서울 금천구 가산디지털2로 70,126.882114,37.4746227
555,가산두산위브점, 서울 금천구 가산로 111,126.892886,37.4755882
556,가산리더스타워점, 서울 금천구 벚꽃로 286,126.884151,37.4803552
557,가산벽산점, 서울 금천구 벚꽃로 244,126.885785,37.4766717
558,가산에이스점, 서울 금천구 가산디지털1로 196,126.881129,37.4828930
559,가산오거리점, 서울 금천구 가산로 155,126.889965,37.4787750
560,가산월드점, 서울 금천구 가산디지털2로 123,126.878693,37.4787368
561,가산하이엔드10차점, 서울 금천구 가산디지털1로 30,126.887459,37.4687805
562,금천롯데마트점, 서울 금천구 시흥대로 291,126.896809,37.4596259
563,독산동쌈지공원점, 서울 금천구 독산로 276,126.903270,37.4713355
564,독산동점, 서울 금천구 독산로 218,126.902067,37.4664060
565,독산롯데시네마점, 서울 금천구 시흥대로 399,126.897440,37.4693934
566,박미삼거리점, 서울 금천구 시흥대로 150,126.903640,37.4476123
567,석수푸르지오점, 서울 금천구 삼성산길 11,126.904720,37.4340800
568,세광교회점, 서울 금천구 독산로 124,126.905548,37.4583359
569,시흥동점, 서울 금천구 시흥동,우편번호없음,x좌표없음
570,시흥사거리점, 서울 금천구 시흥대로63길 8,126.899087,37.4550598
571,시흥유통센터점, 서울 금천구 시흥대로 88,126.903896,37.4418641
572,시흥중앙점, 서울 금천구 금하로 748,126.912509,37.4498718
573,에이스가산포휴점, 서울 금천구 가산디지털1로 225,126.878683,37.4851790
574,은행나무사거리점, 서울 금천구 금하로 690,126.906562,37.4517683
575,관악구청점, 서울 관악구 관악로 164,126.952734,37.4796104
576,관악우성점, 서울 관악구 관악로 232,126.956009,37.4849276
577,관악하나로마트점, 서울 관악구 남부순환로 1369,126.903078,37.4801201
578,낙성대역점, 서울 관악구 남부순환로 1915,126.962198,37.4779110
579,난곡사거리점, 서울 관악구 남부순환로 1444,126.911251,37.4808835
580,난향동점, 서울 관악구 난곡로 60,126.919368,37.4607970
581,남현홈플러스점, 서울 관악구 과천대로 909,126.982391,37.4714648
582,녹두거리점, 서울 관악구 신림로 91,126.939107,37.4702606
583,당곡사거리점, 서울 관악구 봉천로 245,126.929016,37.4892841
584,보라매중앙점, 서울 관악구 보라매로 62,126.927779,37.4941127
585,봉일시장점, 서울 관악구 은천로 23,126.937906,37.4863970
586,봉천역점, 서울 관악구 남부순환로 1725,126.941968,37.4826419
587,봉천중앙점, 서울 관악구 남부순환로 1874,126.957731,37.4789727
588,사당중앙점, 서울 관악구 과천대로 951,126.981271,37.4754561
589,서울대중앙점, 서울 관악구 남부순환로216길 2,126.948968,37.4813387
590,신대방역점, 서울 관악구 난곡로 368,126.913777,37.4868951
591,신림난곡점, 서울 관악구 난곡로 197,126.918835,37.4725187
592,신림남부초교점, 서울 관악구 남부순환로 1541-1,126.921865,37.4833869
593,신림대학동점, 서울 관악구 호암로26길 17,126.934596,37.4707537
594,신림문화교점, 서울 관악구 신림로 262-1,126.932701,37.4785283
595,신림미성점, 서울 관악구 난곡로 250,126.915959,37.4765081
596,신림신원점, 서울 관악구 신원로 16,126.928063,37.4807870
597,신림신화교점, 서울 관악구 신림로 199,126.936186,37.4755209
598,신림역점, 서울 관악구 신림로 312,126.930165,37.4822119
599,신림중앙점, 서울 관악구 관천로 52,126.926613,37.4843270
600,신림패션문화점, 서울 관악구 봉천로6길 24,126.925410,37.4886151
601,인헌점, 서울 관악구 인헌길 17,126.967038,37.4747050
602,청룡중앙점, 서울 관악구 쑥고개로 80,126.945238,37.4791566
603,남성역점, 서울 동작구 사당로17가길 13,126.973410,37.4837888
604,노들점, 서울 동작구 노량진로 200,126.947826,37.5128462
605,노량진CTS점, 서울 동작구 노량진로 110,126.938177,37.5131929
606,노량진드림스퀘어점, 서울 동작구 노들로2길 7,126.939364,37.5143107
607,노량진역사점, 서울 동작구 노량진로 지하,우편번호없음,x좌표없음
608,대림성모점, 서울 동작구 시흥대로 658,126.908085,37.4903416
609,대방역점, 서울 동작구 노량진로 24,126.928337,37.5128808
610,보라매공원점, 서울 동작구 여의대방로 90,126.916649,37.4967992
611,보라매점, 서울 동작구 보라매로5가길 16,126.924084,37.4913172
612,사당역점, 서울 동작구 동작대로7길 100,126.977517,37.4771493
613,사당점, 서울 동작구 동작대로 45,126.981405,37.4807810
614,상도역점, 서울 동작구 상도로 277,126.948365,37.5027373
615,상도중앙점, 서울 동작구 만양로 17,126.947186,37.5062146
616,숭실대점, 서울 동작구 사당로 2,126.954668,37.4954688
617,신대방삼거리점, 서울 동작구 상도로 78,126.929119,37.4995375
618,신상도초교점, 서울 동작구 양녕로 183,126.943144,37.4977162
619,이수중앙점, 서울 동작구 사당로 285,126.979154,37.4846550
620,중앙대점, 서울 동작구 흑석로 79,126.958393,37.5070301
621,중앙대후문점, 서울 동작구 흑석로 20,126.953011,37.5048025
622,총신대입구역점, 서울 동작구 동작대로 119-1,126.981867,37.4873404
623,총신대점, 서울 동작구 사당로16가길 96,126.968786,37.4850760
624,해군회관점, 서울 동작구 여의대방로 194,126.922239,37.5042453
625,갈현점, 서울 은평구 갈현로 268,126.916667,37.6206765
626,구산역점, 서울 은평구 연서로 148,126.917617,37.6119737
627,구파발역점, 서울 은평구 진관2로 29-21,126.914578,37.6441005
628,녹번동점, 서울 은평구 진흥로 156,126.926953,37.6087274
629,녹번중앙점, 서울 은평구 통일로 635,126.934511,37.6032990
630,독바위역점, 서울 은평구 불광로 128,126.933286,37.6181285
631,백련산아이파크점, 서울 은평구 응암로 264,126.918858,37.5952703
632,본서부병원점, 서울 은평구 응암로 337,126.922125,37.6012912
633,불광역점, 서울 은평구 통일로 731,126.929272,37.6105218
634,불광연서로점, 서울 은평구 연서로 275,126.924834,37.6209254
635,불광중앙점, 서울 은평구 불광로 59,126.931694,37.6123343
636,새절역점, 서울 은평구 가좌로 272,126.913652,37.5931222
637,수색역점, 서울 은평구 수색로 250,126.896321,37.5818998
638,역촌동점, 서울 은평구 갈현로 82,126.910671,37.6052653
639,역촌사거리점, 서울 은평구 서오릉로 100,126.921018,37.6089218
640,역촌진흥로점, 서울 은평구 진흥로1길 3,126.918637,37.6007482
641,연신내역점, 서울 은평구 통일로 855-9,126.922674,37.6170227
642,연신내중앙점, 서울 은평구 통일로 825,126.922674,37.6170227
643,연신내통일로점, 서울 은평구 통일로 876,126.920257,37.6211836
644,은평구청점, 서울 은평구 은평로 197,126.929542,37.6016113
645,은평뉴타운점, 서울 은평구 진관3로 70,126.921935,37.6410874
646,은평이마트점, 서울 은평구 은평로 111,126.920257,37.6004159
647,응암역점, 서울 은평구 연서로 9,126.915513,37.6001243
648,응암오거리점, 서울 은평구 응암로 211,126.917108,37.5908813
649,응암중앙점, 서울 은평구 응암로 183,126.916624,37.5884123
650,증산동점, 서울 은평구 증산서길 78,126.906509,37.5833140
651,경희대점, 서울 동대문구 경희대로 4,127.052505,37.5918824
652,경희대캠퍼스점, 서울 동대문구 경희대로 26,127.051410,37.5970635
653,답십리사거리점, 서울 동대문구 답십리로 145,127.056081,37.5730772
654,답십리역점, 서울 동대문구 천호대로 265,127.051357,37.5683130
655,답십리파크자이점, 서울 동대문구 한천로 55,127.061815,37.5668395
656,동대문구청점, 서울 동대문구 천호대로 153-1,127.040629,37.5736149
657,동부병원사거리점, 서울 동대문구 무학로 104,127.030894,37.5735006
658,배봉초교사거리점, 서울 동대문구 답십리로63길 131,127.069296,37.5784852
659,서울시립대점, 서울 동대문구 서울시립대로 164,127.054877,37.5833219
660,신설동역점, 서울 동대문구 천호대로 11-3,127.024951,37.5750877
661,외대점, 서울 동대문구 휘경로 12,127.061249,37.5958066
662,용두동사거리점, 서울 동대문구 왕산로 68,127.031020,37.5776541
663,용두동점, 서울 동대문구 고산자로 413-1,127.037914,37.5766431
664,이문점,  서울 동대문구 신이문로,우편번호없음,x좌표없음
665,장안동사거리점, 서울 동대문구 답십리로 309,127.074701,37.5723823
666,장안동점, 서울 동대문구 장한로 43,127.066658,37.5650800
667,장안중랑천점, 서울 동대문구 장한로18길 32,127.070746,37.5675103
668,장안중앙점, 서울 동대문구 사가정로25길 42,127.070939,37.5806827
669,장한평군자초교점, 서울 동대문구 한천로2길 53,127.061393,37.5628483
670,전농뉴타운점, 서울 동대문구 답십리로 77,127.049448,37.5751974
671,전농사거리점, 서울 동대문구 사가정로 132,127.059491,37.5775895
672,청량리점, 서울 동대문구 왕산로 225,127.047064,37.5820999
673,촬영소사거리점, 서울 동대문구 답십리로 264,127.069449,37.5722413
674,회기역점, 서울 동대문구 망우로 67,127.060814,37.5899324
675,회기역중앙점, 서울 동대문구 회기로 194-1,127.057463,37.5897988
676,금란망우점, 서울 중랑구 망우로 460,127.103129,37.6000666
677,동원사거리점, 서울 중랑구 겸재로 240,127.093887,37.5894606
678,망우동점, 서울 중랑구 망우로 416,127.098338,37.5991066
679,망우중앙점, 서울 중랑구 용마산로115길 109,127.094169,37.5975692
680,먹골역점, 서울 중랑구 동일로157길 13,127.076878,37.6097088
681,면목경남아너스빌점, 서울 중랑구 면목로27길 92,127.080510,37.5742526
682,면목본동점, 서울 중랑구 면목로 370,127.088583,37.5849326
683,묵동자이점, 서울 중랑구 동일로 932,127.077528,37.6138259
684,봉화산역점, 서울 중랑구 신내로 211,127.092878,37.6161846
685,사가정아이파크점, 서울 중랑구 동일로92길 57,127.083169,37.5834949
686,사가정역점, 서울 중랑구 면목로 325,127.088148,37.5811308
687,상봉엠코점, 서울 중랑구 망우로 353,127.090342,37.5980767
688,상봉역점, 서울 중랑구 망우로 277,127.083398,37.5960455
689,상봉중앙점, 서울 중랑구 망우로 316,127.087509,37.5964661
690,서울중랑경찰서점, 서울 중랑구 신내역로3길 40-11,127.104920,37.6180126
691,서울중화초등학교점, 서울 중랑구 신내로7가길 7,127.095432,37.6023344
692,서일중앙점, 서울 중랑구 용마산로 394,127.095525,37.5866482
693,신내동점, 서울 중랑구 봉화산로 215,127.096548,37.6076584
694,양원남부점, 서울 중랑구 양원역로 25-10,127.107414,37.6030991
695,양원역점, 서울 중랑구 양원역로14가길 24,127.106718,37.6073974
696,용마산역점, 서울 중랑구 면목로 254-1,127.085674,37.5754113
697,우림시장점, 서울 중랑구 봉우재로 240,127.099352,37.5952585
698,중랑교차로점, 서울 중랑구 동일로 683,127.079860,37.5914349
699,중랑역점, 서울 중랑구 망우로 198,127.074869,37.5932671
700,중화동점, 서울 중랑구 동일로129길 1,127.079597,37.5993727
701,중화역점," 서울 중랑구 동일로 815,",127.078865,37.6031123
702,화랑대역점, 서울 중랑구 신내로25가길 2,127.084251,37.6194795
703,4.19사거리점, 서울 강북구 삼양로 501,127.014210,37.6478708
704,가오리역점, 서울 강북구 삼각산로 108,127.016146,37.6405186
705,강북경찰서점, 서울 강북구 오패산로 403,127.026976,37.6368588
706,광산사거리점, 서울 강북구 노해로 91,127.022548,37.6438783
707,미아꿈의숲해링턴점, 서울 강북구 오현로 45,127.034378,37.6184949
708,미아삼거리역점, 서울 강북구 도봉로10길 28,127.031000,37.6138377
709,미아삼거리점, 서울 강북구 도봉로 45,127.029618,37.6130812
710,미아송천점, 서울 강북구 삼양로 118,127.022404,37.6144072
711,미아역점, 서울 강북구 도봉로 207,127.025432,37.6270564
712,미아중앙점, 서울 강북구 도봉로 128,127.028738,37.6204515
713,번동점, 서울 강북구 오현로 194,127.039876,37.6288005
714,북한산점, 서울 강북구 4.19로 85,127.005575,37.6447360
715,삼각산점, 서울 강북구 솔샘로40길 3,127.015983,37.6199042
716,삼양사거리점, 서울 강북구 솔샘로 254,127.016915,37.6342026
717,삼양시장점, 서울 강북구 삼양로 234,127.018714,37.6241925
718,수유1동점, 서울 강북구 삼양로 293,127.017684,37.6297156
719,수유사거리점, 서울 강북구 덕릉로 82,127.022829,37.6343909
720,수유역점, 서울 강북구 도봉로 355,127.026728,37.6393725
721,우이역도선사점, 서울 강북구 삼양로173길 21,127.011277,37.6624849
722,한신대점, 서울 강북구 덕릉로 31,127.011277,37.6624849
